City,Cloudiness,Country,Date,Humidity,Lat,Lng,Max Temp,Wind Speed
Punta Arenas,64,CL,1553407200,92,-53.1627,-70.9081,51.12,11.88
Shimoda,0,JP,1553407200,100,34.701,138.9287,55.18,5.61
Vaini,0,IN,1553407200,33,15.336,74.4926,104.52,3.71
Ixtapa,0,MX,1553407200,81,20.715,-105.2067,65.62,2.26
Mar del Plata,20,AR,1553407200,100,-46.4276,-67.5191,44.09,4.5
Katobu,24,ID,1553407200,76,-4.9409,122.5276,90.43,4.05
Geraldton,92,CA,1553407200,70,49.7189,-86.9494,20.51,12.21
Rikitea,48,PF,1553407200,98,-23.1203,-134.9692,79.1,18.14
Yulara,92,AU,1553407200,18,-25.2411,130.9869,98.99,4.83
Puerto Ayora,8,EC,1553407200,93,-0.7394,-90.3518,77.21,9.31
Hobart,24,AU,1553407200,52,-42.8826,147.3281,69.74,8.75
Nokaneng,0,BW,1553407200,48,-19.6622,22.1901,75.47,14.23
Victoria,12,BN,1553407200,94,5.2785,115.2423,87.55,11.21
Bada,0,NG,1553407200,28,12.4149,4.5075,72.17,9.86
Malappuram,0,IN,1553407200,70,11.041,76.0798,94.3,4.38
Juneau,92,US,1553407200,97,58.3019,-134.4198,42.37,3.38
Zyryanka,20,RU,1553407200,70,65.7336,150.8933,13.44,3.38
Kodiak,92,US,1553407200,95,39.9519,-94.7572,50.21,16.8
Ushuaia,92,AR,1553407200,100,-54.807,-68.3074,51.69,7.74
Norman Wells,12,CA,1553407200,88,65.2824,-126.8328,30.0,8.97
Thompson,0,CA,1553407200,48,55.7433,-97.8635,2.06,5.06
Upernavik,36,GL,1553407200,100,72.7868,-56.1549,-9.01,9.31
Albany,0,US,1553407200,55,42.6512,-73.755,30.77,7.85
Katsuura,12,JP,1553407200,66,33.9258,134.505,52.47,8.08
Male,68,UA,1553407200,82,50.7379,33.6978,39.13,4.72
Nouadhibou,0,MR,1553407200,99,20.931,-17.0347,62.31,8.97
Kaitangata,64,NZ,1553407200,92,-46.2818,169.8464,63.71,4.16
Chanute,56,US,1553407200,93,37.6792,-95.4573,55.43,19.82
Butaritari,92,KI,1553407200,100,3.0707,172.7902,82.4,13.67
Saskylakh,0,RU,1553407200,81,71.965,114.0939,-4.47,4.72
Busselton,0,AU,1553407200,93,-33.6445,115.3489,73.06,17.36
Atuona,92,PF,1553407200,98,-9.8,-139.0334,83.07,17.13
Hatillo,8,PR,1553407200,93,18.4864,-66.8258,76.4,12.88
Tasiilaq,0,GL,1553407200,100,65.6145,-37.6368,11.21,7.4
Coyula,88,MX,1553407200,95,20.9264,-98.4823,63.8,1.81
Negombo,0,LK,1553407200,83,7.2094,79.8331,88.93,4.38
Arraial do Cabo,20,BR,1553407200,96,-22.9663,-42.0245,76.22,7.74
Torbay,80,CA,1553407200,84,47.6577,-52.727,36.1,20.15
Bluff,0,AU,1553407200,39,-23.58,149.0661,94.15,9.53
Hermanus,76,ZA,1553407200,93,-34.4176,19.2361,63.84,1.92
Qaanaaq,8,GL,1553407200,87,77.484,-69.3633,-28.28,10.31
Saint George,68,GR,1553407200,85,39.4548,22.34,53.58,3.27
Dikson,68,RU,1553407200,99,73.5069,80.5464,21.76,23.96
Talara,32,PE,1553407200,84,-4.5797,-81.2719,72.44,3.38
Bogalusa,0,US,1553407200,96,30.791,-89.8487,50.48,2.93
Skibotn,88,NO,1553407200,100,69.3913,20.2679,31.98,2.59
Avarua,92,CK,1553407200,100,-21.2078,-159.775,74.87,5.28
Sitka,44,US,1553407200,87,37.175,-99.6516,43.64,3.71
Chuy,0,UY,1553407200,94,-33.6938,-53.4562,64.45,13.78
Ahipara,92,NZ,1553407200,90,-35.1665,173.1562,67.58,3.71
Saint-Augustin,0,FR,1553407200,76,44.8323,-0.6091,41.76,4.27
Nogales,12,US,1553407200,69,31.3402,-110.9361,42.35,2.48
Hilo,76,US,1553407200,100,19.7072,-155.0817,72.8,17.02
Naryan-Mar,68,RU,1553407200,89,67.6713,53.087,32.65,18.92
Kenora,68,CA,1553407200,74,49.7618,-94.4825,30.23,10.87
Tazovskiy,68,RU,1553407200,97,67.4667,78.7,18.93,4.83
Lompoc,0,US,1553407200,95,34.6392,-120.458,53.0,8.75
Castro,80,CL,1553407200,100,-42.4824,-73.7644,47.66,3.15
Barra Patuca,56,HN,1553407200,90,15.8,-84.2834,77.39,10.65
Cabo San Lucas,0,MX,1553407200,100,22.8938,-109.9112,69.56,10.76
Wajima,68,JP,1553407200,77,37.4,136.9,45.35,9.19
Cherskiy,12,RU,1553407200,59,68.75,161.3,4.94,2.37
Nelson,48,CA,1553407200,90,49.4949,-117.2901,29.87,1.7
Tuktoyaktuk,80,CA,1553407200,100,69.444,-133.032,20.51,27.87
Casablanca,80,MA,1553407200,99,33.5951,-7.6188,60.02,7.85
Cayenne,92,GF,1553407200,97,4.9371,-52.3259,76.15,7.18
Saint-Philippe,0,CA,1553407200,78,45.3584,-73.4791,25.5,10.31
Gizo,68,IL,1553407200,96,31.8041,34.9381,58.96,2.37
Makasar,20,ID,1553407200,90,-6.2761,106.877,89.74,11.99
Sisimiut,48,GL,1553407200,67,66.9395,-53.6735,-8.58,2.37
Mataura,100,NZ,1553407200,62,-46.1928,168.8643,70.64,12.21
Mount Gambier,0,AU,1553407200,56,-37.8302,140.7843,79.36,12.88
Awjilah,88,LY,1553407200,83,29.1403,21.2975,58.75,10.65
Umm Lajj,24,SA,1553407200,59,25.024,37.2669,85.6,19.26
Husavik,80,CA,1553407200,95,50.5623,-96.9949,27.89,19.71
Bethel,92,US,1553407200,94,60.7922,-161.7559,36.44,18.7
Esperance,24,TT,1553407200,80,10.2447,-61.4506,76.04,5.73
Taltal,0,CL,1553407200,96,-25.408,-70.4859,53.81,2.37
Cape Town,64,ZA,1553407200,93,-33.929,18.4174,65.87,11.99
Camacha,88,PT,1553407200,100,33.0833,-16.3334,62.18,13.78
Nha Trang,80,VN,1553407200,100,12.2432,109.1899,88.68,6.06
Laguna,0,MX,1553407200,66,27.5185,-110.0074,57.77,1.7
Alto Araguaia,0,BR,1553407200,82,-17.3157,-53.217,70.91,9.19
Leningradskiy,56,RU,1553407200,80,69.3833,178.4167,-0.84,17.25
Nikolskoye,0,RU,1553407200,90,59.7035,30.7861,34.97,10.09
Pevek,0,RU,1553407200,58,69.7028,170.2747,-6.5,5.61
Kapaa,80,US,1553407200,93,22.0752,-159.319,70.55,10.65
Yellowknife,92,CA,1553407200,81,62.4541,-114.3774,8.53,19.04
Nenjiang,8,CN,1553407200,32,49.1735,125.2312,43.86,13.78
Vanimo,8,PG,1553407200,100,-2.6741,141.3028,83.84,14.12
Constitucion,0,MX,1553407200,46,23.9912,-104.675,47.6,6.73
Pangkalanbuun,8,ID,1553407200,80,-2.6834,111.6167,92.77,4.5
Verkhovyna,0,UA,1553407200,55,48.1538,24.8279,35.76,2.15
Bambous Virieux,80,MU,1553407200,81,-20.3428,57.7575,83.59,18.7
Chumikan,0,RU,1553407200,52,54.7183,135.315,25.84,4.61
Rotenburg,80,DE,1553407200,88,53.1167,9.4,38.24,3.27
Faya,0,SA,1553407200,45,18.3851,42.4509,73.96,4.5
Sao Filipe,56,CV,1553407200,100,14.8961,-24.4956,68.39,10.76
Kavieng,48,PG,1553407200,100,-2.5745,150.7967,82.15,7.63
Agadez,76,NE,1553407200,17,16.9726,7.9907,74.41,10.2
Nanortalik,92,GL,1553407200,100,60.1432,-45.2372,24.02,32.57
Sao Miguel do Araguaia,32,BR,1553407200,96,-13.275,-50.1628,72.35,2.82
Kokopo,68,PG,1553407200,100,-4.3439,152.2688,80.81,4.38
Sioux Lookout,56,CA,1553407200,60,50.1001,-91.9191,21.05,12.77
Imeni Poliny Osipenko,0,RU,1553407200,56,52.4228,136.4894,28.17,3.71
Sohag,0,EG,1553407200,41,26.5477,31.6993,71.53,10.2
Kloulklubed,8,PW,1553407200,98,7.0419,134.2556,82.38,10.65
Bredasdorp,48,ZA,1553407200,97,-34.5331,20.0428,68.39,8.52
Carnarvon,8,ZA,1553407200,23,-30.9678,22.1333,64.34,2.93
Galle,88,US,1553407200,77,29.7383,-97.9142,67.13,13.33
Aswan,12,EG,1553407200,30,24.0911,32.8973,84.04,11.21
Duluth,0,US,1553407200,89,46.7729,-92.1252,30.83,8.41
Dongkan,64,CN,1553407200,61,33.9997,119.8308,61.75,13.56
Izumo,88,JP,1553407200,97,35.3669,132.7549,48.77,12.66
Provideniya,48,RU,1553407200,100,64.4238,-173.2276,24.76,21.83
Port-Cartier,0,CA,1553407200,96,50.0257,-66.8819,29.33,17.81
Henties Bay,48,NA,1553407200,99,-22.1161,14.2845,62.83,3.27
Jamestown,92,AU,1553407200,95,-33.2075,138.6035,65.6,19.82
Raymond,0,US,1553407200,41,43.0362,-71.1834,32.39,8.63
Kushiro,8,JP,1553407200,78,43.1128,144.1501,31.37,6.62
Afogados da Ingazeira,88,BR,1553407200,94,-7.7505,-37.6357,67.93,1.7
Fairbanks,56,US,1553407200,89,64.8378,-147.7167,34.66,3.38
Port Blair,0,IN,1553407200,100,11.6667,92.75,87.82,6.4
Ilulissat,32,GL,1553407200,80,69.2167,-51.1,4.1,9.42
Avera,32,US,1553407200,38,33.194,-82.5271,48.32,6.51
Ugoofaaru,0,MV,1553407200,96,5.6667,73.0,86.04,10.42
Khatanga,0,RU,1553407200,69,71.9801,102.4743,5.13,9.08
Barrow,0,AR,1553407200,87,-38.3131,-60.2291,52.19,14.23
East London,48,ZA,1553407200,89,-33.0153,27.9116,75.77,15.35
Padang,80,ID,1553407200,100,-0.9248,100.3633,77.66,10.54
Aksu,64,KZ,1553407200,92,52.0354,76.9341,35.8,6.4
Nelson Bay,68,AU,1553407200,92,-32.7219,152.1441,83.3,6.62
Wangkui,0,CN,1553407200,64,46.8333,126.5,49.12,5.73
Upata,0,VE,1553407200,74,8.017,-62.4058,73.43,8.41
Roald,92,NO,1553407200,96,62.5838,6.1242,39.5,22.06
Port Hardy,0,CA,1553407200,88,50.6996,-127.4199,42.02,2.93
Polson,32,US,1553407200,82,47.6905,-114.1638,28.33,1.03
Teya,0,MX,1553407200,59,21.0486,-89.0739,70.64,6.4
Pisco,8,PE,1553407200,90,-13.71,-76.203,67.62,1.25
High Level,24,CA,1553407200,68,58.5167,-117.1334,29.69,6.96
Vao,0,EE,1553407200,80,59.1018,26.1904,34.01,12.88
Port Alfred,80,ZA,1553407200,81,-33.5906,26.891,74.24,7.63
Margate,56,AU,1553407200,67,-43.0274,147.2623,70.52,9.42
Bubaque,0,GW,1553407200,100,11.2833,-15.8334,75.41,14.23
New Norfolk,0,AU,1553407200,58,-42.7802,147.0615,69.42,11.43
Fortuna,8,ES,1553407200,74,38.1801,-1.126,43.34,2.59
Ishigaki,76,JP,1553407200,100,24.3448,124.1572,70.1,15.23
Mandalgovi,0,MN,1553407200,71,45.763,106.2704,48.34,11.65
Kaeo,24,NZ,1553407200,67,-35.1018,173.7751,69.02,10.2
Tautira,88,PF,1553407200,98,-17.7334,-149.15,85.3,9.42
Lagoa,0,PT,1553407200,73,37.1363,-8.4541,54.26,10.76
Taywarah,0,AF,1553407200,58,33.35,64.4167,56.05,2.93
Cruz Grande,0,MX,1553407200,100,16.7233,-99.1312,72.23,2.15
Manama,0,AE,1553407200,75,25.3295,56.019,82.38,5.06
Jacareacanga,92,BR,1553407200,97,-6.2243,-57.7609,73.16,2.48
Coihaique,36,CL,1553407200,92,-45.5753,-72.0662,41.59,2.37
Rawson,0,AR,1553407200,80,-43.2992,-65.1057,50.93,11.32
Niceville,0,US,1553407200,94,30.5169,-86.4822,49.85,2.93
Grand Gaube,48,MU,1553407200,97,-20.0064,57.6608,83.42,27.87
Martapura,64,ID,1553407200,81,-3.4055,114.8478,90.18,5.06
Faanui,76,PF,1553407200,100,-16.4834,-151.75,84.9,11.54
Smithers,0,CA,1553407200,81,54.783,-127.1703,25.36,1.81
Georgetown,76,GY,1553407200,72,6.8026,-58.1629,78.74,5.95
Lasa,44,CY,1553407200,99,34.9245,32.5278,58.76,2.93
Juruti,68,BR,1553407200,94,-2.1572,-56.0901,76.14,2.15
Abalak,80,NE,1553407200,30,15.4637,6.2813,71.36,8.86
Guerrero Negro,0,MX,1553407200,97,27.971,-114.0364,53.09,8.41
Sainte-Maxime,0,FR,1553407200,100,43.3087,6.6377,51.65,1.92
Mayo,88,CA,1553407200,70,63.5927,-135.8962,43.27,3.27
Saint-Michel-des-Saints,0,CA,1553407200,72,46.6786,-73.9177,23.22,8.75
Xichang,92,CN,1553407200,93,27.876,102.2549,47.3,1.14
Axim,36,GH,1553407200,97,4.8654,-2.2422,83.01,8.97
Bogande,36,BF,1553407200,43,12.9714,-0.1437,69.11,3.49
Kabinda,48,CD,1553407200,96,-6.1369,24.4862,73.96,4.61
Hualmay,32,PE,1553407200,94,-11.0968,-77.613,65.69,3.38
Bilma,88,NE,1553407200,14,18.6929,12.9187,68.93,14.23
Cocobeach,92,GA,1553407200,98,1.0053,9.5843,81.37,2.37
Vestmannaeyjar,92,IS,1553407200,100,63.4427,-20.2734,37.89,36.26
North Myrtle Beach,0,US,1553407200,100,33.8278,-78.6801,58.13,1.25
Sinnamary,88,GF,1553407200,100,5.3772,-52.9574,78.02,10.42
Maumere,32,ID,1553407200,94,-8.6257,122.2193,84.15,15.46
Port Hueneme,0,US,1553407200,91,34.1478,-119.1952,55.07,6.51
Cidreira,0,BR,1553407200,95,-30.1658,-50.2184,59.3,4.38
Sisophon,92,KH,1553407200,100,13.5884,102.97,75.49,4.05
College,56,US,1553407200,89,64.8569,-147.8028,34.28,3.38
Dunedin,64,NZ,1553407200,82,-45.874,170.5035,68.84,3.27
Atar,0,MR,1553407200,77,20.5183,-13.0544,50.84,2.71
Buala,88,SB,1553407200,83,-8.1456,159.593,84.41,5.73
The Valley,32,AI,1553407200,99,18.217,-63.0579,77.05,12.66
Kasongo-Lunda,68,CD,1553407200,94,-6.4787,16.8168,69.37,2.93
Conil,0,FR,1553407200,70,44.9673,3.7177,24.92,1.25
Los Llanos de Aridane,92,ES,1553407200,100,28.6585,-17.9183,61.37,5.95
Hithadhoo,36,MV,1553407200,99,-0.6,73.0833,86.5,8.86
San Quintin,88,PH,1553407200,48,17.5427,120.5203,84.63,3.94
Lebu,0,ET,1553407200,43,8.9611,38.7254,72.66,3.94
Macas,80,EC,1553407200,91,-2.3047,-78.1176,62.99,3.38
Nizhneangarsk,20,RU,1553407200,56,55.7836,109.5718,17.81,7.74
Lata,12,IN,1553407200,53,30.7809,78.6152,66.79,1.7
Ribeira Grande,68,PT,1553407200,100,38.5167,-28.7001,58.64,22.62
Porto Novo,64,BR,1553407200,100,-23.6775,-45.4418,66.43,2.71
Narsaq,88,GL,1553407200,68,60.9127,-46.0453,24.62,6.96
Tiksi,56,RU,1553407200,75,71.6366,128.8685,7.99,8.97
Birao,8,CF,1553407200,45,10.2962,22.781,86.65,3.04
Itarema,80,BR,1553407200,99,-2.9248,-39.9167,75.05,2.37
Mahebourg,80,MU,1553407200,81,-20.4081,57.7,83.57,18.7
Severo-Kurilsk,80,RU,1553407200,100,50.6789,156.125,28.07,20.04
Namibe,76,AO,1553407200,100,-15.1902,12.1531,77.21,2.71
Aba,100,NG,1553407200,93,5.1127,7.3643,73.34,5.84
Muzhi,36,RU,1553407200,84,65.4,64.7019,30.94,15.68
Portland,92,US,1553407200,96,45.5202,-122.6742,45.73,2.59
Comodoro Rivadavia,12,AR,1553407200,100,-45.8654,-67.4808,51.83,3.49
Denpasar,80,ID,1553407200,96,-8.65,115.2167,83.44,1.7
Kahului,12,US,1553407200,88,20.8894,-156.4728,70.82,13.33
Gatton,32,AU,1553407200,49,-27.5616,152.2791,94.41,6.62
Bulawayo,92,ZW,1553407200,87,-20.1561,28.5887,67.73,9.08
Nybro,32,SE,1553407200,52,56.7452,15.9062,41.12,8.08
Nantucket,0,US,1553407200,98,41.2835,-70.0995,38.69,18.03
Kyren,88,RU,1553407200,54,51.6824,102.1329,36.64,3.38
Makakilo City,36,US,1553407200,77,21.3469,-158.0859,71.09,12.66
Okhotsk,64,RU,1553407200,71,59.3644,143.2411,29.37,4.61
Pangnirtung,68,CA,1553407200,70,66.149,-65.7179,10.44,22.39
Bintulu,20,MY,1553407200,71,3.1667,113.0333,92.55,5.39
San Juan,0,PH,1553407200,70,14.6047,121.03,88.97,16.8
Pasighat,0,IN,1553407200,63,28.0594,95.3326,74.86,2.15
Isla Vista,0,US,1553407200,87,34.4134,-119.8616,57.86,17.36
Dalvik,20,SE,1553407200,58,57.7865,14.1298,36.89,7.29
Bermejo,100,AR,1553407200,98,-22.7322,-64.3433,66.32,2.15
Kungurtug,8,RU,1553407200,52,50.5987,97.5254,37.0,7.4
Inhambane,56,MZ,1553407200,81,-23.866,35.3844,80.27,9.19
Citrus Heights,0,US,1553407200,89,38.7071,-121.2811,43.37,4.61
Oum Hadjer,24,TD,1553407200,23,13.2954,19.6966,86.83,7.4
Fernie,92,CA,1553407200,95,49.5042,-115.0626,41.83,1.81
Coahuayana,0,MX,1553407200,63,18.6201,-100.3453,56.87,1.92
Monte Carmelo,20,BR,1553407200,90,-18.7261,-47.4959,64.25,3.38
Lorengau,68,PG,1553407200,96,-2.0226,147.2712,83.62,10.87
Eustis,32,US,1553407200,99,40.6625,-100.0296,42.29,6.4
Langenburg,0,CA,1553407200,84,50.8418,-101.7016,23.03,13.11
Sal Rei,88,CV,1553407200,100,16.1833,-22.9167,68.95,9.86
Pareora,12,NZ,1553407200,85,-44.4871,171.2132,68.3,2.82
Olga,8,US,1553407200,87,34.1125,-118.1657,47.7,1.92
Mutuipe,92,BR,1553407200,98,-13.2287,-39.5048,70.28,3.6
Igualada,36,ES,1553407200,85,41.579,1.6173,46.31,3.38
Sampit,8,ID,1553407200,75,-2.539,112.9494,96.84,4.61
Saldanha,0,PT,1553407200,86,41.4184,-6.5524,32.21,3.6
Manaus,56,BR,1553407200,88,-3.1317,-59.9826,79.5,5.17
Atambua,44,ID,1553407200,99,-9.1066,124.892,83.7,6.17
Ganganagar,0,IN,1553407200,24,16.7798,77.1335,110.66,9.86
Nivala,0,FI,1553407200,63,63.929,24.9613,35.94,13.67
Port Elizabeth,0,US,1553407200,49,39.3134,-74.9811,35.44,9.19
Yar-Sale,0,RU,1553407200,85,66.8333,70.8333,23.99,11.77
Praia da Vitoria,68,PT,1553407200,100,38.7333,-27.0667,58.31,23.51
Rio Grande,0,BR,1553407200,99,-32.0335,-52.0992,65.33,10.2
Tocache,56,PE,1553407200,89,-8.1888,-76.5103,57.59,0.92
Pangai,92,TO,1553407200,100,-19.8,-174.3501,81.55,14.23
Yerofey Pavlovich,80,RU,1553407200,49,53.9667,121.9667,29.16,4.16
Pizarro,88,CO,1553407200,93,4.9538,-77.3668,77.12,5.28
Chokurdakh,32,RU,1553407200,71,70.6192,147.9022,2.19,3.71
Nizwa,48,OM,1553407200,49,22.9324,57.5311,78.48,3.6
Zhezkazgan,76,KZ,1553407200,100,47.8043,67.7144,42.56,3.49
Kaplice,44,CZ,1553407200,88,48.7388,14.4966,38.53,2.71
Saint-Pierre,24,FR,1553407200,86,48.9455,4.2446,30.86,2.93
Yangjiang,92,CN,1553407200,100,21.8526,111.9594,73.15,13.44
Evensk,0,RU,1553407200,85,61.9192,159.2359,28.88,14.0
Ilam,100,IR,1553407200,90,33.6379,46.4203,51.76,7.52
Airai,44,TL,1553407200,59,-8.9266,125.4092,84.54,2.04
Komsomolskiy,88,RU,1553407200,91,67.5537,63.776,28.18,20.6
Nouakchott,0,MR,1553407200,98,18.0792,-15.9781,65.69,14.67
Isangel,92,VU,1553407200,100,-19.55,169.2667,84.36,17.02
Kruisfontein,88,ZA,1553407200,85,-34.0034,24.7314,69.37,10.42
Fukue,0,JP,1553407200,97,35.0335,136.6943,54.1,17.25
Nyurba,68,RU,1553407200,56,63.2866,118.3541,16.72,6.85
Victoria,12,BN,1553407200,94,5.2785,115.2423,87.55,11.21
Cabedelo,44,BR,1553407200,100,-6.9733,-34.8352,78.92,4.61
Hamilton,44,BM,1553407200,98,32.2956,-64.7828,66.5,23.73
Kachug,44,RU,1553407200,64,53.9608,105.8851,29.23,7.74
Westport,88,IE,1553407200,79,53.8001,-9.5203,45.44,15.68
Dingle,0,PH,1553407200,44,11.0001,122.6718,92.34,15.23
Arawa,92,NG,1553407200,88,7.05,3.9,77.66,3.15
Neiafu,92,TO,1553407200,100,-18.65,-173.9834,82.27,15.23
Churapcha,32,RU,1553407200,44,62.0025,132.4325,20.23,4.05
Petropavlovsk-Kamchatskiy,88,RU,1553407200,75,53.0452,158.6483,31.04,2.15
Burgeo,76,CA,1553407200,92,47.6125,-57.6096,31.49,14.12
Merauke,64,ID,1553407200,94,-8.4903,140.3956,81.26,11.1
Hasaki,0,JP,1553407200,100,35.7333,140.8333,55.85,14.23
Kochi,0,IN,1553407200,75,9.9634,76.2537,92.5,4.61
Chegdomyn,24,RU,1553407200,35,51.1345,133.0356,25.79,3.04
Te Anau,80,NZ,1553407200,83,-45.4145,167.7175,61.91,7.52
Touros,64,BR,1553407200,100,-5.1989,-35.4609,76.12,4.94
Fort-Shevchenko,32,KZ,1553407200,84,44.5086,50.263,53.15,14.67
Tanout,64,NE,1553407200,16,14.9712,8.8784,76.31,14.79
Sydney,92,AU,1553407200,73,-33.8549,151.2165,81.7,3.04
Auki,76,NG,1553407200,48,12.1824,6.5056,67.04,2.59
Puerto Escondido,8,MX,1553407200,100,15.8624,-97.0717,83.6,10.31
Paamiut,76,GL,1553407200,100,61.994,-49.6678,22.55,8.63
Sao Joao da Barra,12,BR,1553407200,98,-21.6403,-41.0512,80.36,9.31
Carpentersville,92,US,1553407200,72,42.1211,-88.2579,40.57,8.63
Winchester,56,GB,1553407200,93,51.0613,-1.3132,38.51,4.72
Ancud,76,CL,1553407200,85,-41.8682,-73.8288,46.72,2.59
Hue,64,VN,1553407200,76,16.4691,107.5778,85.44,2.93
Hami,0,CN,1553407200,47,42.8354,93.5128,66.58,6.29
Caravelas,76,BR,1553407200,100,-17.7297,-39.2661,82.8,17.92
Russkaya Polyana,20,RU,1553407200,100,53.7804,73.8821,37.24,6.4
Mosetse,0,BW,1553407200,65,-20.6405,26.6381,73.87,11.65
Viesca,0,MX,1553407200,30,25.343,-102.8051,59.63,2.48
Chopinzinho,0,BR,1553407200,97,-25.8567,-52.5295,59.21,2.48
Ponta do Sol,68,BR,1553407200,93,-20.6335,-45.9989,64.34,3.94
San Jeronimo,64,PE,1553407200,100,-13.6517,-73.366,40.85,1.92
Corum,0,TR,1553407200,69,38.7985,29.8852,32.36,4.38
Lethem,0,GY,1553407200,63,3.3803,-59.7969,79.28,11.77
Mayor Pablo Lagerenza,88,PY,1553407200,82,-19.9309,-60.7718,75.77,4.94
Saint-Francois,0,FR,1553407200,74,46.4154,3.9054,31.04,3.04
Waddan,0,LY,1553407200,90,29.1615,16.1414,47.62,6.51
Gonaives,80,HT,1553407200,100,19.45,-72.6834,70.37,3.6
Tura,0,IN,1553407200,58,25.5174,90.2067,87.48,3.15
Oranjestad,0,AW,1553407200,93,12.524,-70.0271,78.83,21.83
Ust-Maya,8,RU,1553407200,48,60.4164,134.5365,23.22,3.71
Bereda,0,ES,1553407200,83,43.2686,-7.5406,40.49,2.15
Riyadh,20,SA,1553407200,44,24.632,46.7151,77.43,3.71
Arti,68,RU,1553407200,93,56.4256,58.5327,39.29,6.17
Mortka,0,RU,1553407200,78,59.3303,66.0221,49.14,3.38
Waingapu,80,ID,1553407200,80,-9.6522,120.2637,83.15,9.98
Brae,92,GB,1553407200,99,60.3964,-1.353,43.91,33.46
Baykit,80,RU,1553407200,78,61.6784,96.3854,26.06,3.94
Galway,20,IE,1553407200,93,53.2744,-9.0491,42.24,10.76
Euskirchen,12,DE,1553407200,95,50.6612,6.7873,40.59,4.72
Banda Aceh,48,ID,1553407200,93,5.5577,95.3222,80.36,3.6
Mount Isa,56,AU,1553407200,52,-20.729,139.4932,88.46,20.49
Aberdeen,44,US,1553407200,86,45.465,-98.4879,30.47,2.71
Basse,20,DE,1553407200,88,52.5518,9.5069,35.09,2.93
Sorata,44,BO,1553407200,93,-15.7729,-68.65,46.61,2.37
Gorontalo,36,ID,1553407200,54,0.5384,123.0595,91.09,2.93
Vila Velha,56,BR,1553407200,100,-3.7125,-38.6045,78.56,4.61
Thinadhoo,56,MV,1553407200,100,0.5333,72.9333,85.39,9.31
Lazaro Cardenas,0,MX,1553407200,20,28.3905,-105.6235,58.84,10.65
Viedma,92,AR,1553407200,72,-40.8086,-62.9947,59.39,23.62
Hambantota,20,LK,1553407200,92,6.1241,81.1185,85.84,5.39
Hofn,0,IS,1553407200,100,64.2539,-15.2082,37.7,20.04
Quchan,36,IR,1553407200,49,37.106,58.5108,81.21,3.27
Alofi,0,NU,1553407200,97,-19.0596,-169.9187,81.26,13.67
Ogaminana,68,NG,1553407200,82,7.6004,6.2014,75.14,10.98
Rome,0,IT,1553407200,70,41.8933,12.4829,46.31,2.37
Lavrentiya,88,RU,1553407200,98,65.5842,-170.989,20.48,20.15
Carquefou,0,FR,1553407200,84,47.2972,-1.4922,40.31,7.18
Darnah,0,LY,1553407200,100,32.767,22.6367,60.58,15.79
Peniche,0,PT,1553407200,90,39.3566,-9.3813,59.93,16.69
Fianarantsoa,12,MG,1553407200,69,-21.4534,47.0854,78.82,7.63
Myanaung,0,MM,1553407200,41,18.2833,95.3167,104.74,2.93
Plettenberg Bay,92,ZA,1553407200,100,-34.0528,23.3716,68.12,14.23
Ponta Delgada,44,PT,1553407200,100,37.7333,-25.6667,58.04,21.83
Bandarbeyla,0,SO,1553407200,100,9.4942,50.8122,81.19,7.74
Antsohihy,68,MG,1553407200,96,-14.8776,47.9872,86.68,5.39
Half Moon Bay,0,US,1553407200,100,37.4636,-122.4286,48.59,7.74
Beaverlodge,80,CA,1553407200,86,55.2106,-119.4287,34.34,2.59
Erzin,92,TR,1553407200,60,36.9536,36.2023,57.07,18.03
Minab,0,IR,1553407200,98,27.1483,57.0737,73.31,7.63
Aosta,0,IT,1553407200,52,45.7371,7.3197,38.93,0.92
Itaituba,80,BR,1553407200,91,-4.2626,-55.9879,76.85,2.37
Tyler,76,US,1553407200,73,32.3513,-95.3011,64.67,12.44
Sarkand,92,KZ,1553407200,95,45.4083,79.9138,47.79,6.06
Lakes Entrance,68,AU,1553407200,75,-37.8795,147.9944,74.41,3.94
Troitskiy,0,RU,1553407200,80,45.1462,38.1411,42.57,5.06
Sibolga,56,ID,1553407200,84,1.737,98.7846,81.1,2.82
Pierre,88,US,1553407200,95,44.3683,-100.3512,34.48,7.4
Shestakovo,76,RU,1553407200,54,56.4942,103.9623,29.16,6.51
Independence,80,US,1553407200,95,39.0911,-94.4156,51.29,17.02
Assiniboia,92,CA,1553407200,94,49.6282,-105.9934,39.24,15.46
Kamina,92,CD,1553407200,97,-8.7365,24.9952,66.41,7.4
Salalah,64,OM,1553407200,100,17.0149,54.0957,79.61,7.63
Benghazi,24,LY,1553407200,100,32.1171,20.067,61.36,23.73
Kaduy,92,RU,1553407200,95,59.2,37.15,33.29,10.42
Cap Malheureux,48,MU,1553407200,97,-19.9842,57.6142,83.42,27.87
Ratnagiri,0,IN,1553407200,89,16.9833,73.3,86.83,3.83
Glendive,64,US,1553407200,86,47.1053,-104.7125,43.01,4.72
Ngunguru,0,NZ,1553407200,95,-35.6167,174.5,70.27,12.44
Jalu,88,LY,1553407200,84,29.0331,21.5482,57.63,10.98
Raudeberg,92,NO,1553407200,100,61.9875,5.1352,40.32,9.64
Cabatuan,44,PH,1553407200,48,16.9543,121.6699,88.27,6.17
Yuanping,76,CN,1553407200,30,38.7243,112.7143,52.86,5.84
Lincoln,0,GB,1553407200,85,53.2336,-0.5393,37.97,6.4
Powell River,12,CA,1553407200,93,49.8371,-124.5246,45.89,3.04
Kortkeros,24,RU,1553407200,80,61.8149,51.5607,37.49,8.97
Hutchinson,0,US,1553407200,74,38.0608,-97.9298,49.76,11.77
San Cristobal,48,EC,1553407200,100,-0.3855,-78.5488,48.04,2.37
Recke,0,DE,1553407200,84,52.3703,7.7175,33.21,3.71
Tamiahua,8,MX,1553407200,93,21.2781,-97.4456,72.89,8.63
Ostrovnoy,12,RU,1553407200,88,68.0544,39.5129,30.9,17.47
Levokumskoye,88,RU,1553407200,100,44.8225,44.6604,40.35,7.63
Zhuanghe,0,CN,1553407200,63,39.6964,122.9703,48.47,24.07
Ayagoz,12,KZ,1553407200,95,47.9649,80.4301,53.15,2.59
Ambilobe,32,MG,1553407200,100,-13.1945,49.05,85.3,0.92
Tarbagatay,8,RU,1553407200,41,51.4837,107.3576,40.32,10.76
Agogo,36,GH,1553407200,92,6.8009,-1.0848,69.73,3.49
Panjab,0,AF,1553407200,90,34.3838,67.0178,43.18,1.48
Griffith,92,AU,1553407200,92,-34.2871,146.0551,76.15,4.38
Codrington,36,AU,1553407200,56,-28.9484,153.2428,87.82,3.04
Port Lincoln,0,AU,1553407200,84,-34.7212,135.8592,68.48,28.99
Aykhal,20,RU,1553407200,65,65.9451,111.5081,4.86,4.5
Ureki,92,GE,1553407200,100,41.9969,41.7793,38.82,1.92
Kenai,92,US,1553407200,93,60.5544,-151.2584,37.87,7.18
Havoysund,88,NO,1553407200,98,70.9963,24.6622,29.51,2.37
Shirokiy,44,RU,1553407200,81,53.8731,39.1716,31.51,3.04
Belaya Gora,8,RU,1553407200,74,68.537,146.1873,0.21,4.16
Maniitsoq,12,GL,1553407200,76,65.4167,-52.9001,4.49,10.76
Chibombo,20,ZM,1553407200,72,-14.6803,28.0947,73.18,13.56
Jining,20,CN,1553407200,42,35.4125,116.5849,69.76,14.56
Nipawin,0,CA,1553407200,76,53.3628,-104.0172,18.61,11.21
Parati,0,BR,1553407200,80,-20.5091,-54.6276,70.81,8.3
Halifax,44,CA,1553407200,86,44.6491,-63.5752,36.17,18.03
Boyolangu,48,ID,1553407200,88,-8.0857,111.9026,82.22,4.61
Oktyabrskiy,92,RU,1553407200,94,55.6086,37.9744,35.08,9.64
Vila Franca do Campo,24,PT,1553407200,100,37.7167,-25.4334,57.5,19.71
Algiers,0,US,1553407200,82,29.9413,-90.0376,54.44,3.49
Bacungan,32,PH,1553407200,96,9.865,118.7296,85.73,17.69
Zhoukou,64,CN,1553407200,47,33.6306,114.6424,67.3,9.86
Tshikapa,88,CD,1553407200,96,-6.4231,20.7888,74.8,2.82
Surgut,88,RU,1553407200,95,61.254,73.3964,33.38,8.63
Port Hawkesbury,56,CA,1553407200,84,45.6181,-61.3575,33.11,21.83
Tadine,92,NC,1553407200,91,-21.55,167.8833,81.17,17.25
Mlawa,0,PL,1553407200,78,53.1128,20.3841,37.6,11.43
Varzelandia,92,BR,1553407200,98,-15.7014,-44.0276,68.03,7.4
Xining,36,CN,1553407200,31,36.6219,101.773,47.77,8.75
Luanda,68,AO,1553407200,100,-8.8272,13.2437,78.76,2.48
Namatanai,56,PG,1553407200,100,-3.6642,152.4407,82.7,6.96
Miedzychod,76,PL,1553407200,75,52.5988,15.897,40.76,6.51
Kazachinskoye,88,RU,1553407200,83,57.6944,93.281,35.49,3.71
Gibara,88,CU,1553407200,97,21.1097,-76.1317,72.84,10.31
Mitsamiouli,0,KM,1553407200,96,-11.3848,43.2844,84.32,6.96
Saint Anthony,0,US,1553407200,78,43.9663,-111.6822,25.81,2.93
Wawa,44,NG,1553407200,72,9.9037,4.4101,72.89,9.19
Kampot,44,KH,1553407200,70,10.6183,104.1797,87.85,6.73
Mococa,0,BR,1553407200,95,-21.4648,-47.0025,67.23,2.59
Pachino,0,IT,1553407200,100,36.7152,15.0915,57.42,4.94
Klaksvik,68,FO,1553407200,95,62.2266,-6.5891,42.74,25.75
Polunochnoye,0,RU,1553407200,84,60.8693,60.4253,46.63,4.83
Belfast,0,GB,1553407200,87,54.597,-5.9301,38.34,13.44
Santa Maria,0,BR,1553407200,83,-29.6861,-53.807,53.36,3.71
Atikokan,56,CA,1553407200,93,48.7625,-91.6247,30.77,5.61
Bitung,12,ID,1553407200,100,1.4434,125.1941,91.6,15.01
Wilmslow,0,GB,1553407200,87,53.3261,-2.2328,35.09,4.38
Abatskoye,24,RU,1553407200,100,56.2875,70.4555,35.26,6.73
Port Moresby,88,PG,1553407200,98,-9.4744,147.16,82.42,3.38
Talnakh,80,RU,1553407200,91,69.494,88.3908,17.13,7.85
Saint-Joseph,0,FR,1553407200,37,43.5562,6.9715,45.99,4.72
Gat,0,SN,1553407200,94,14.6934,-16.5351,62.56,10.42
Lagunillas,0,VE,1553407200,100,8.5046,-71.3945,51.56,1.7
Bowen,36,AU,1553407200,96,-20.0107,148.2468,86.16,15.01
Riohacha,0,CO,1553407200,87,11.5446,-72.907,78.57,14.67
Fare,92,PF,1553407200,97,-16.7001,-151.0167,84.68,10.65
Vardo,0,US,1553407200,49,39.6165,-77.7392,33.48,4.83
Longhua,92,CN,1553407200,100,29.2084,106.2084,54.52,4.16
Mailsi,92,PK,1553407200,90,29.7989,72.1782,64.26,6.51
Kuching,12,MY,1553407200,92,1.5574,110.344,87.13,8.08
Pringsewu,32,ID,1553407200,100,-5.3555,104.9774,81.17,2.82
Chernyshevskiy,64,RU,1553407200,59,63.0128,112.4714,14.63,5.73
Lakhimpur,0,IN,1553407200,66,27.2362,94.1039,78.22,8.41
Novoagansk,80,RU,1553407200,84,61.9449,76.6625,32.38,5.73
Aitape,48,PG,1553407200,86,-3.1511,142.3594,84.05,7.07
Atbasar,36,KZ,1553407200,100,51.811,68.3626,40.57,4.61
Nanma,0,CN,1553407200,26,35.7016,113.1429,60.82,4.38
Nemuro,88,JP,1553407200,99,43.3236,145.575,31.67,12.55
Lima,36,PE,1553407200,81,-12.0622,-77.0366,66.88,1.92
Mehamn,48,NO,1553407200,77,71.035,27.8517,24.62,3.6
Clyde River,56,CA,1553407200,83,70.4692,-68.5915,-9.65,23.17
Longyearbyen,0,NO,1553407200,69,78.2198,15.6349,15.46,4.5
Buraydah,80,SA,1553407200,11,26.3317,43.9717,82.69,7.52
Mattru,32,SL,1553407200,90,7.6244,-11.8333,74.33,2.15
Gimli,80,CA,1553407200,95,50.6323,-96.9882,27.89,19.71
Ulaanbaatar,8,MN,1553407200,28,47.9185,106.9177,40.91,10.65
Mao,0,DO,1553407200,85,19.5516,-71.077,75.14,10.42
Honningsvag,88,NO,1553407200,97,70.9821,25.9704,30.31,0.58
Olovyannaya,80,RU,1553407200,28,50.9437,115.5869,36.32,17.69
Karia,64,NG,1553407200,35,11.7306,11.1629,73.7,4.94
Danshui,92,CN,1553407200,90,22.8081,114.4607,69.38,13.44
Oranjemund,92,ZA,1553407200,92,-28.552,16.4284,62.18,2.59
Egvekinot,88,RU,1553407200,79,66.3167,-179.1667,2.96,4.16
Kavaratti,24,IN,1553407200,100,10.5669,72.642,84.36,9.19
Kargil,44,PK,1553407200,87,34.5594,76.1256,16.38,1.36
Leshukonskoye,92,RU,1553407200,79,64.8989,45.7622,34.88,8.97
Sault Sainte Marie,0,CA,1553407200,80,46.4906,-84.3593,33.65,10.31
Kozhva,92,RU,1553407200,81,65.1073,57.0459,34.86,13.0
Zhigansk,44,RU,1553407200,61,66.7656,123.3741,15.4,9.19
Talaya,76,RU,1553407200,100,55.787,84.8935,37.2,4.61
Lufilufi,92,WS,1553407200,100,-13.8745,-171.5986,86.02,14.79
Diego de Almagro,0,CL,1553407200,89,-26.3911,-70.046,56.96,1.03
Okha,76,RU,1553407200,89,53.5905,142.9501,20.41,19.82
Uyuni,24,BO,1553407200,55,-20.4628,-66.824,40.04,1.36
Shiloh,92,US,1553407200,57,38.5614,-89.8974,49.58,13.44
Quarai,0,BR,1553407200,79,-30.3876,-56.4514,53.99,1.7
Jeremoabo,64,BR,1553407200,99,-10.0806,-38.3437,69.29,2.71
Gedo,0,ET,1553407200,43,9.0119,37.4508,88.02,4.05
Potosi,36,BO,1553407200,91,-19.5892,-65.7538,31.67,2.26
Moose Factory,92,CA,1553407200,77,51.2585,-80.6095,11.24,17.47
Kamaishi,0,JP,1553407200,48,39.2793,141.864,37.61,16.8
Omboue,92,GA,1553407200,100,-1.5747,9.2618,79.7,6.96
Boa Vista,0,BR,1553407200,59,2.8213,-60.6724,82.24,12.44
Sobolevo,0,RU,1553407200,97,54.4299,31.8996,42.17,12.88
Rafaela,12,AR,1553407200,81,-31.2527,-61.4917,59.72,2.82
Nome,36,US,1553407200,80,30.0358,-94.4244,61.73,8.3
Maple Creek,92,CA,1553407200,66,49.9071,-109.462,45.71,13.44
La Ronge,0,CA,1553407200,53,55.1004,-105.3013,12.68,6.73
Angoram,48,PG,1553407200,86,-4.0563,144.0729,83.51,0.92
Trairi,80,BR,1553407200,100,-3.278,-39.2679,79.19,3.49
Shingu,0,JP,1553407200,100,33.7241,135.993,55.79,8.19
Porbandar,0,IN,1553407200,49,21.6422,69.6093,90.21,12.1
Abha,0,SA,1553407200,42,18.2164,42.5044,77.65,1.59
Gravesend,64,GB,1553407200,93,51.4423,0.3696,35.26,4.38
Puerto Asis,68,CO,1553407200,97,0.5133,-76.5008,71.0,2.15
La Libertad,76,PE,1553407200,82,-16.3768,-71.5604,51.67,3.71
Port Macquarie,56,AU,1553407200,79,-31.43,152.9104,89.67,4.16
Galveston,92,US,1553407200,72,40.5789,-86.1903,36.37,7.4
Shintomi,0,JP,1553407200,100,32.0785,131.4723,57.97,3.71
Pechora,92,RU,1553407200,81,65.1155,57.1616,34.86,13.0
General Pico,0,AR,1553407200,36,-35.6636,-63.7543,60.56,11.77
Kawalu,68,ID,1553407200,96,-7.3817,108.2082,74.06,1.14
Ivanovka,0,KG,1553407200,90,42.8874,75.085,47.91,1.7
Aksarka,44,RU,1553407200,91,66.5606,67.7975,25.32,15.46
Ndioum,0,SN,1553407200,88,16.51,-14.6475,58.49,9.53
Oromocto,0,CA,1553407200,57,45.8474,-66.4713,33.11,11.21
Christchurch,0,NZ,1553407200,80,-43.531,172.6366,66.85,3.71
Santa Cruz,0,US,1553407200,97,36.9742,-122.0298,40.24,2.26
Mamontovo,48,RU,1553407200,100,52.7067,81.6313,41.04,8.3
Sovetskiy,64,RU,1553407200,97,56.763,48.4743,30.52,8.41
Kununurra,32,AU,1553407200,41,-15.7731,128.7388,97.82,10.65
Fort Nelson,80,CA,1553407200,87,58.8063,-122.694,32.03,2.82
Maxixe,56,MZ,1553407200,81,-23.8616,35.3489,80.27,9.19
Surt,92,LY,1553407200,94,31.2089,16.5887,60.28,10.98
Dire Dawa,0,ET,1553407200,27,9.5945,41.8557,100.69,3.38
Gao,56,ML,1553407200,26,16.2788,-0.0413,71.27,2.82
Nuuk,32,GL,1553407200,100,64.175,-51.7356,9.03,6.73
Mizdah,64,LY,1553407200,88,31.4451,12.9801,51.64,11.1
Tabou,32,CI,1553407200,98,4.4194,-7.3604,82.43,7.18
Xuanzhou,92,CN,1553407200,58,30.9467,118.7806,59.45,7.29
Nacala,44,MZ,1553407200,97,-14.5565,40.687,82.53,8.75
Ust-Nera,0,RU,1553407200,63,64.5664,143.2378,13.1,2.59
Yeppoon,0,AU,1553407200,55,-23.1349,150.7437,88.66,12.55
Mtimbira,8,TZ,1553407200,62,-8.7834,36.35,87.31,2.48
Hohhot,0,CN,1553407200,23,40.8106,111.6522,51.33,10.87
Buchanan,24,LR,1553407200,100,5.8813,-10.0495,77.84,3.27
Alyangula,20,AU,1553407200,100,-13.8484,136.4192,88.34,16.69
Bure,56,NG,1553407200,43,10.5238,10.3285,75.77,1.92
San Patricio,0,PY,1553407200,83,-26.9767,-56.8274,59.48,2.04
Tuatapere,56,NZ,1553407200,79,-46.1324,167.6908,67.05,10.54
Cervo,64,BR,1553407200,97,-22.1856,-46.2383,61.01,2.37
Bani Walid,68,LY,1553407200,94,31.757,13.9951,52.09,11.54
Imperia,0,IT,1553407200,89,43.8833,8.0223,54.35,6.4
Bahia Blanca,0,AR,1553407200,87,-38.7197,-62.2725,59.66,21.83
Weyburn,92,CA,1553407200,77,49.6694,-103.8511,34.91,19.26
